{"businesses": [{"id": "r3-BXJVcVFZpyOkU2n6g0w", "alias": "wild-flour-banffs-artisan-bakery-cafe-banff", "name": "Wild Flour - Banff's Artisan Bakery Cafe", "image_url": "https://s3-media3.fl.yelpcdn.com/bphoto/xuBDav71eJkDz9o96vkpvQ/o.jpg", "is_closed": false, "url": "https://www.yelp.com/biz/wild-flour-banffs-artisan-bakery-cafe-banff?adjust_creative=BagZJOrnqKddLICuqFQeXw&utm_campaign=yelp_api_v3&utm_medium=api_v3_business_search&utm_source=BagZJOrnqKddLICuqFQeXw", "review_count": 285, "categories": [{"alias": "coffee", "title": "Coffee & Tea"}, {"alias": "bakeries", "title": "Bakeries"}, {"alias": "breakfast_brunch", "title": "Breakfast & Brunch"}], "rating": 4.0, "coordinates": {"latitude": 51.17757, "longitude": -115.57257}, "transactions": [], "price": "$$", "location": {"address1": "211 Bear Street", "address2": "Ste 101", "address3": "", "city": "Banff", "zip_code": "T1L 1B4", "country": "CA", "state": "AB", "display_address": ["211 Bear Street", "Ste 101", "Banff, AB T1L 1B4", "Canada"]}, "phone": "+14037605074", "display_phone": "+1 403-760-5074", "distance": 324.7401808142746}, {"id": "Q5G1IFxG8rUf-VP7-Hhlkg", "alias": "whitebark-cafe-banff", "name": "Whitebark Cafe", "image_url": "https://s3-media3.fl.yelpcdn.com/bphoto/t3uM0w0S4AOj3DXxs4Iu7Q/o.jpg", "is_closed": false, "url": "https://www.yelp.com/biz/whitebark-cafe-banff?adjust_creative=BagZJOrnqKddLICuqFQeXw&utm_campaign=yelp_api_v3&utm_medium=api_v3_business_search&utm_source=BagZJOrnqKddLICuqFQeXw", "review_count": 155, "categories": [{"alias": "cafes", "title": "Cafes"}, {"alias": "coffee", "title": "Coffee & Tea"}], "rating": 4.5, "coordinates": {"latitude": 51.1811247722328, "longitude": -115.568938577346}, "transactions": [], "price": "$", "location": {"address1": "401 Banff Avenue", "address2": "", "address3": "", "city": "Banff", "zip_code": "T1L 1A9", "country": "CA", "state": "AB", "display_address": ["401 Banff Avenue", "Banff, AB T1L 1A9", "Canada"]}, "phone": "+14037607298", "display_phone": "+1 403-760-7298", "distance": 431.53807755581335}, {"id": "XqiA4XrZoQT7raDuY4ZB6w", "alias": "evelyns-coffee-bar-banff-2", "name": "Evelyn's Coffee Bar", "image_url": "https://s3-media3.fl.yelpcdn.com/bphoto/m2qbLf83TB1vOvDxvd2h7g/o.jpg", "is_closed": false, "url": "https://www.yelp.com/biz/evelyns-coffee-bar-banff-2?adjust_creative=BagZJOrnqKddLICuqFQeXw&utm_campaign=yelp_api_v3&utm_medium=api_v3_business_search&utm_source=BagZJOrnqKddLICuqFQeXw", "review_count": 70, "categories": [{"alias": "coffee", "title": "Coffee & Tea"}], "rating": 3.5, "coordinates": {"latitude": 51.1775076, "longitude": -115.5712711}, "transactions": [], "price": "$$", "location": {"address1": "215 Banff Avenue", "address2": "", "address3": "", "city": "Banff", "zip_code": "T1L 1A4", "country": "CA", "state": "AB", "display_address": ["215 Banff Avenue", "Banff, AB T1L 1A4", "Canada"]}, "phone": "+14037622000", "display_phone": "+1 403-762-2000", "distance": 233.94922201783956}, {"id": "pbuqt0t49vuPeHnnqzFYcQ", "alias": "mcdonalds-banff", "name": "McDonald's", "image_url": "https://s3-media1.fl.yelpcdn.com/bphoto/8VRxasD_HoI8ApTIHMKFQA/o.jpg", "is_closed": false, "url": "https://www.yelp.com/biz/mcdonalds-banff?adjust_creative=BagZJOrnqKddLICuqFQeXw&utm_campaign=yelp_api_v3&utm_medium=api_v3_business_search&utm_source=BagZJOrnqKddLICuqFQeXw", "review_count": 25, "categories": [{"alias": "hotdogs", "title": "Fast Food"}, {"alias": "burgers", "title": "Burgers"}, {"alias": "coffee", "title": "Coffee & Tea"}], "rating": 3.5, "coordinates": {"latitude": 51.17524688127395, "longitude": -115.57065869940567}, "transactions": [], "price": "$", "location": {"address1": "116 Banff Avenue", "address2": "", "address3": "", "city": "Banff", "zip_code": "T1L 1H1", "country": "CA", "state": "AB", "display_address": ["116 Banff Avenue", "Banff, AB T1L 1H1", "Canada"]}, "phone": "+14037625232", "display_phone": "+1 403-762-5232", "distance": 296.677109177507}, {"id": "GXprtql104AR7tFS20_Bxg", "alias": "second-cup-banff", "name": "Second Cup", "image_url": "https://s3-media3.fl.yelpcdn.com/bphoto/PMpzQeZnj5mAw2abPvDLBg/o.jpg", "is_closed": false, "url": "https://www.yelp.com/biz/second-cup-banff?adjust_creative=BagZJOrnqKddLICuqFQeXw&utm_campaign=yelp_api_v3&utm_medium=api_v3_business_search&utm_source=BagZJOrnqKddLICuqFQeXw", "review_count": 19, "categories": [{"alias": "coffee", "title": "Coffee & Tea"}], "rating": 3.5, "coordinates": {"latitude": 51.17858069414785, "longitude": -115.57129317300132}, "transactions": [], "price": "$", "location": {"address1": "317 Banff Avenue", "address2": "", "address3": "", "city": "Banff", "zip_code": "T1L 1A1", "country": "CA", "state": "AB", "display_address": ["317 Banff Avenue", "Banff, AB T1L 1A1", "Canada"]}, "phone": "+14039851355", "display_phone": "+1 403-985-1355", "distance": 274.4380676141947}, {"id": "3l5PblcPO88M1iaXmEyBeA", "alias": "tim-hortons-banff", "name": "Tim Hortons", "image_url": "https://s3-media1.fl.yelpcdn.com/bphoto/FZFjVEUWmUSlO-rvBPKq2g/o.jpg", "is_closed": false, "url": "https://www.yelp.com/biz/tim-hortons-banff?adjust_creative=BagZJOrnqKddLICuqFQeXw&utm_campaign=yelp_api_v3&utm_medium=api_v3_business_search&utm_source=BagZJOrnqKddLICuqFQeXw", "review_count": 33, "categories": [{"alias": "coffee", "title": "Coffee & Tea"}, {"alias": "bakeries", "title": "Bakeries"}], "rating": 3.0, "coordinates": {"latitude": 51.18001611041345, "longitude": -115.57589504285276}, "transactions": [], "price": "$", "location": {"address1": "100 Gopher Street", "address2": "", "address3": "", "city": "Banff", "zip_code": "T1L 1J3", "country": "CA", "state": "AB", "display_address": ["100 Gopher Street", "Banff, AB T1L 1J3", "Canada"]}, "phone": "+14037628701", "display_phone": "+1 403-762-8701", "distance": 632.1590544122595}, {"id": "hBId8h7fENBBWjbclNUqDQ", "alias": "little-wild-coffee-by-wild-flour-banff", "name": "Little Wild Coffee By Wild Flour", "image_url": "https://s3-media3.fl.yelpcdn.com/bphoto/Z-VOXe9e2U7rqhYpPxUuoQ/o.jpg", "is_closed": false, "url": "https://www.yelp.com/biz/little-wild-coffee-by-wild-flour-banff?adjust_creative=BagZJOrnqKddLICuqFQeXw&utm_campaign=yelp_api_v3&utm_medium=api_v3_business_search&utm_source=BagZJOrnqKddLICuqFQeXw", "review_count": 13, "categories": [{"alias": "coffee", "title": "Coffee & Tea"}, {"alias": "bakeries", "title": "Bakeries"}], "rating": 3.5, "coordinates": {"latitude": 51.1755049420463, "longitude": -115.571487061679}, "transactions": [], "price": "$", "location": {"address1": "119 Banff Avenue", "address2": "", "address3": null, "city": "Banff", "zip_code": "T1L", "country": "CA", "state": "AB", "display_address": ["119 Banff Avenue", "Banff, AB T1L", "Canada"]}, "phone": "+14037620329", "display_phone": "+1 403-762-0329", "distance": 317.8893327606131}, {"id": "bgNbJwLBec_1-eZx72svDw", "alias": "starbucks-banff", "name": "Starbucks", "image_url": "https://s3-media3.fl.yelpcdn.com/bphoto/Vnlo7NdRqC995nKjdfxVHA/o.jpg", "is_closed": false, "url": "https://www.yelp.com/biz/starbucks-banff?adjust_creative=BagZJOrnqKddLICuqFQeXw&utm_campaign=yelp_api_v3&utm_medium=api_v3_business_search&utm_source=BagZJOrnqKddLICuqFQeXw", "review_count": 16, "categories": [{"alias": "coffee", "title": "Coffee & Tea"}], "rating": 3.0, "coordinates": {"latitude": 51.1767608049468, "longitude": -115.571012639073}, "transactions": [], "price": "$$", "location": {"address1": "225A Banff Avenue", "address2": "", "address3": "", "city": "Banff", "zip_code": "T1L 1B4", "country": "CA", "state": "AB", "display_address": ["225A Banff Avenue", "Banff, AB T1L 1B4", "Canada"]}, "phone": "+14037608777", "display_phone": "+1 403-760-8777", "distance": 222.8199889128502}, {"id": "7AZCzdtvhZmfo57cZ07SuA", "alias": "jump-start-coffee-banff", "name": "Jump Start Coffee", "image_url": "https://s3-media3.fl.yelpcdn.com/bphoto/x4njVCobnh6hLy-1crIGrw/o.jpg", "is_closed": false, "url": "https://www.yelp.com/biz/jump-start-coffee-banff?adjust_creative=BagZJOrnqKddLICuqFQeXw&utm_campaign=yelp_api_v3&utm_medium=api_v3_business_search&utm_source=BagZJOrnqKddLICuqFQeXw", "review_count": 3, "categories": [{"alias": "coffee", "title": "Coffee & Tea"}], "rating": 4.5, "coordinates": {"latitude": 51.1745549, "longitude": -115.5718478}, "transactions": [], "price": "$", "location": {"address1": "206 Buffalo Street", "address2": "", "address3": null, "city": "Banff", "zip_code": "T1L 1A9", "country": "CA", "state": "AB", "display_address": ["206 Buffalo Street", "Banff, AB T1L 1A9", "Canada"]}, "phone": "+14037620332", "display_phone": "+1 403-762-0332", "distance": 411.9596424681796}, {"id": "_axJoA9Y5KvkgThrnq63_Q", "alias": "portsoy-coffee-shop-banff", "name": "Portsoy Coffee Shop", "image_url": "https://s3-media1.fl.yelpcdn.com/bphoto/28Jilt6khsB9Fr_2luxBVQ/o.jpg", "is_closed": false, "url": "https://www.yelp.com/biz/portsoy-coffee-shop-banff?adjust_creative=BagZJOrnqKddLICuqFQeXw&utm_campaign=yelp_api_v3&utm_medium=api_v3_business_search&utm_source=BagZJOrnqKddLICuqFQeXw", "review_count": 2, "categories": [{"alias": "coffee", "title": "Coffee & Tea"}], "rating": 4.5, "coordinates": {"latitude": 57.6816599, "longitude": -2.6924183}, "transactions": [], "price": "$$", "location": {"address1": "2 South High Street", "address2": "", "address3": "Portsoy", "city": "Banff", "zip_code": "AB45 2NT", "country": "CA", "state": "AB", "display_address": ["2 South High Street", "Portsoy", "Banff, AB AB45 2NT", "Canada"]}, "phone": "+441261842804", "display_phone": "+44 1261 842804", "distance": 234.9046147891704}, {"id": "WJdxL1rCAtidTeoMh-fW3Q", "alias": "java-lift-coffee-bar-banff", "name": "Java Lift Coffee Bar", "image_url": "https://s3-media3.fl.yelpcdn.com/bphoto/qzxYzfR01dgzDWFtCPHqTA/o.jpg", "is_closed": false, "url": "https://www.yelp.com/biz/java-lift-coffee-bar-banff?adjust_creative=BagZJOrnqKddLICuqFQeXw&utm_campaign=yelp_api_v3&utm_medium=api_v3_business_search&utm_source=BagZJOrnqKddLICuqFQeXw", "review_count": 3, "categories": [{"alias": "cafes", "title": "Cafes"}, {"alias": "coffee", "title": "Coffee & Tea"}], "rating": 3.0, "coordinates": {"latitude": 51.1783629, "longitude": -115.5707694}, "transactions": [], "location": {"address1": "", "address2": "", "address3": "", "city": "Banff", "zip_code": "", "country": "CA", "state": "AB", "display_address": ["Banff, AB", "Canada"]}, "phone": "+14037054000", "display_phone": "+1 403-705-4000", "distance": 230.6630655888543}, {"id": "g4V_1-Z6f4lID7LcMX_Dxg", "alias": "starbucks-banff-2", "name": "Starbucks", "image_url": "", "is_closed": false, "url": "https://www.yelp.com/biz/starbucks-banff-2?adjust_creative=BagZJOrnqKddLICuqFQeXw&utm_campaign=yelp_api_v3&utm_medium=api_v3_business_search&utm_source=BagZJOrnqKddLICuqFQeXw", "review_count": 1, "categories": [{"alias": "coffee", "title": "Coffee & Tea"}], "rating": 3.0, "coordinates": {"latitude": 51.1767608049468, "longitude": -115.571012639073}, "transactions": [], "price": "$", "location": {"address1": "318 Marten Street", "address2": "", "address3": "", "city": "Banff", "zip_code": "T0L 0C0", "country": "CA", "state": "AB", "display_address": ["318 Marten Street", "Banff, AB T0L 0C0", "Canada"]}, "phone": "", "display_phone": "", "distance": 222.8199889128502}], "total": 12, "region": {"center": {"longitude": -115.56793212890625, "latitude": 51.17729548188535}}}