{"businesses": [{"id": "ElUn5TlO073hXf4Sx6zKwQ", "alias": "dose-coffee-company-red-deer", "name": "Dose Coffee Company", "image_url": "https://s3-media3.fl.yelpcdn.com/bphoto/eIXqtNQtJhh1RTuXpTWZNg/o.jpg", "is_closed": false, "url": "https://www.yelp.com/biz/dose-coffee-company-red-deer?adjust_creative=BagZJOrnqKddLICuqFQeXw&utm_campaign=yelp_api_v3&utm_medium=api_v3_business_search&utm_source=BagZJOrnqKddLICuqFQeXw", "review_count": 16, "categories": [{"alias": "coffee", "title": "Coffee & Tea"}], "rating": 4.0, "coordinates": {"latitude": 52.2685392572897, "longitude": -113.814218976665}, "transactions": [], "price": "$$", "location": {"address1": "4912 50 Avenue", "address2": "", "address3": "", "city": "Red Deer", "zip_code": "T4N 4A8", "country": "CA", "state": "AB", "display_address": ["4912 50 Avenue", "Red Deer, AB T4N 4A8", "Canada"]}, "phone": "+14033433722", "display_phone": "+1 403-343-3722", "distance": 1210.9650615191886}, {"id": "py-kbvRn7Euopedz-zTYAg", "alias": "city-roast-coffee-red-deer", "name": "City Roast Coffee", "image_url": "https://s3-media3.fl.yelpcdn.com/bphoto/oSdiLakTVrmNyxE3y4tnTw/o.jpg", "is_closed": false, "url": "https://www.yelp.com/biz/city-roast-coffee-red-deer?adjust_creative=BagZJOrnqKddLICuqFQeXw&utm_campaign=yelp_api_v3&utm_medium=api_v3_business_search&utm_source=BagZJOrnqKddLICuqFQeXw", "review_count": 5, "categories": [{"alias": "coffee", "title": "Coffee & Tea"}, {"alias": "desserts", "title": "Desserts"}, {"alias": "bagels", "title": "Bagels"}], "rating": 4.0, "coordinates": {"latitude": 52.2690188, "longitude": -113.8135337}, "transactions": [], "price": "$", "location": {"address1": "4940 Ross Street", "address2": "", "address3": "", "city": "Red Deer", "zip_code": "T4N 1X7", "country": "CA", "state": "AB", "display_address": ["4940 Ross Street", "Red Deer, AB T4N 1X7", "Canada"]}, "phone": "+14033470893", "display_phone": "+1 403-347-0893", "distance": 1146.2299307570645}, {"id": "aw6qrMcDVZWfVF-ePlY3wQ", "alias": "starbucks-red-deer-3", "name": "Starbucks", "image_url": "https://s3-media4.fl.yelpcdn.com/bphoto/4g4D1d811dl_ejLbNmkNNQ/o.jpg", "is_closed": false, "url": "https://www.yelp.com/biz/starbucks-red-deer-3?adjust_creative=BagZJOrnqKddLICuqFQeXw&utm_campaign=yelp_api_v3&utm_medium=api_v3_business_search&utm_source=BagZJOrnqKddLICuqFQeXw", "review_count": 3, "categories": [{"alias": "coffee", "title": "Coffee & Tea"}], "rating": 4.5, "coordinates": {"latitude": 52.2897453, "longitude": -113.8381424}, "transactions": [], "price": "$$$", "location": {"address1": "6730 Taylor Drive", "address2": "Unit 300", "address3": "", "city": "Red Deer", "zip_code": "T4P 1K4", "country": "CA", "state": "AB", "display_address": ["6730 Taylor Drive", "Unit 300", "Red Deer, AB T4P 1K4", "Canada"]}, "phone": "+14033564791", "display_phone": "+1 403-356-4791", "distance": 2389.4750150070126}, {"id": "SCVMujdNNeW_GgC_1goW2Q", "alias": "starbucks-red-deer-2", "name": "Starbucks", "image_url": "https://s3-media3.fl.yelpcdn.com/bphoto/T3kYE68Ca9JeBmJiCyXXXQ/o.jpg", "is_closed": false, "url": "https://www.yelp.com/biz/starbucks-red-deer-2?adjust_creative=BagZJOrnqKddLICuqFQeXw&utm_campaign=yelp_api_v3&utm_medium=api_v3_business_search&utm_source=BagZJOrnqKddLICuqFQeXw", "review_count": 4, "categories": [{"alias": "coffee", "title": "Coffee & Tea"}], "rating": 3.5, "coordinates": {"latitude": 52.2392951, "longitude": -113.8187111}, "transactions": [], "price": "$$", "location": {"address1": "5250 22 St", "address2": "", "address3": "", "city": "Red Deer", "zip_code": "T4R 2T4", "country": "CA", "state": "AB", "display_address": ["5250 22 St", "Red Deer, AB T4R 2T4", "Canada"]}, "phone": "+14033401151", "display_phone": "+1 403-340-1151", "distance": 4373.032283634955}, {"id": "4aSVUYMYiPmwDebBhzwcBg", "alias": "ten-thousand-villages-red-deer-red-deer", "name": "Ten Thousand Villages Red Deer", "image_url": "", "is_closed": false, "url": "https://www.yelp.com/biz/ten-thousand-villages-red-deer-red-deer?adjust_creative=BagZJOrnqKddLICuqFQeXw&utm_campaign=yelp_api_v3&utm_medium=api_v3_business_search&utm_source=BagZJOrnqKddLICuqFQeXw", "review_count": 1, "categories": [{"alias": "artsandcrafts", "title": "Arts & Crafts"}, {"alias": "coffee", "title": "Coffee & Tea"}], "rating": 5.0, "coordinates": {"latitude": 52.2670617391049, "longitude": -113.81318452954}, "transactions": [], "price": "$", "location": {"address1": "4925 48 Street", "address2": "", "address3": "", "city": "Red Deer", "zip_code": "T4N 1S8", "country": "CA", "state": "AB", "display_address": ["4925 48 Street", "Red Deer, AB T4N 1S8", "Canada"]}, "phone": "+14033410178", "display_phone": "+1 403-341-0178", "distance": 1350.7768436816004}, {"id": "J-vrE1sTzT8kMwRDVJ9FVg", "alias": "starbucks-red-deer", "name": "Starbucks", "image_url": "https://s3-media3.fl.yelpcdn.com/bphoto/QU3tRTUvM9zDhxkSWfUPCQ/o.jpg", "is_closed": false, "url": "https://www.yelp.com/biz/starbucks-red-deer?adjust_creative=BagZJOrnqKddLICuqFQeXw&utm_campaign=yelp_api_v3&utm_medium=api_v3_business_search&utm_source=BagZJOrnqKddLICuqFQeXw", "review_count": 3, "categories": [{"alias": "coffee", "title": "Coffee & Tea"}], "rating": 2.5, "coordinates": {"latitude": 52.28779, "longitude": -113.81621}, "transactions": [], "price": "$$", "location": {"address1": "6380 50 Ave", "address2": "", "address3": "", "city": "Red Deer", "zip_code": "T4N 4C6", "country": "CA", "state": "AB", "display_address": ["6380 50 Ave", "Red Deer, AB T4N 4C6", "Canada"]}, "phone": "+14033403145", "display_phone": "+1 403-340-3145", "distance": 1044.2134958978174}, {"id": "LotnY5v-0HNn8o-tZg47-Q", "alias": "stella-bean-sweets-red-deer", "name": "Stella Bean Sweets", "image_url": "https://s3-media3.fl.yelpcdn.com/bphoto/YumBUShQ8vbJ_krzl86tpg/o.jpg", "is_closed": false, "url": "https://www.yelp.com/biz/stella-bean-sweets-red-deer?adjust_creative=BagZJOrnqKddLICuqFQeXw&utm_campaign=yelp_api_v3&utm_medium=api_v3_business_search&utm_source=BagZJOrnqKddLICuqFQeXw", "review_count": 1, "categories": [{"alias": "coffee", "title": "Coffee & Tea"}], "rating": 4.0, "coordinates": {"latitude": 52.2691271373113, "longitude": -113.809426317333}, "transactions": [], "location": {"address1": "4808 50th Street", "address2": "Suite 100", "address3": null, "city": "Red Deer", "zip_code": "T4N 1X5", "country": "CA", "state": "AB", "display_address": ["4808 50th Street", "Suite 100", "Red Deer, AB T4N 1X5", "Canada"]}, "phone": "+14033028776", "display_phone": "+1 403-302-8776", "distance": 1087.9126040964652}, {"id": "dHheXYZvhYIHOJHKNg3vqA", "alias": "tim-hortons-red-deer-9", "name": "Tim Hortons", "image_url": "https://s3-media2.fl.yelpcdn.com/bphoto/MHIOd2cKGWaYjzut4Vt9Gg/o.jpg", "is_closed": false, "url": "https://www.yelp.com/biz/tim-hortons-red-deer-9?adjust_creative=BagZJOrnqKddLICuqFQeXw&utm_campaign=yelp_api_v3&utm_medium=api_v3_business_search&utm_source=BagZJOrnqKddLICuqFQeXw", "review_count": 1, "categories": [{"alias": "coffee", "title": "Coffee & Tea"}, {"alias": "bakeries", "title": "Bakeries"}], "rating": 4.0, "coordinates": {"latitude": 52.2876199, "longitude": -113.7727}, "transactions": [], "location": {"address1": "62 Carleton Avenue", "address2": "Unit 110", "address3": null, "city": "Red Deer", "zip_code": "T4P 0N1", "country": "CA", "state": "AB", "display_address": ["62 Carleton Avenue", "Unit 110", "Red Deer, AB T4P 0N1", "Canada"]}, "phone": "+14033482355", "display_phone": "+1 403-348-2355", "distance": 2632.811820748758}, {"id": "EVB7yvZZZc4jz1LF-Z5VKA", "alias": "tim-hortons-red-deer-2", "name": "Tim Hortons", "image_url": "https://s3-media2.fl.yelpcdn.com/bphoto/qL1wJaPHnZZ-xN0jBBC5VQ/o.jpg", "is_closed": false, "url": "https://www.yelp.com/biz/tim-hortons-red-deer-2?adjust_creative=BagZJOrnqKddLICuqFQeXw&utm_campaign=yelp_api_v3&utm_medium=api_v3_business_search&utm_source=BagZJOrnqKddLICuqFQeXw", "review_count": 4, "categories": [{"alias": "bakeries", "title": "Bakeries"}, {"alias": "coffee", "title": "Coffee & Tea"}], "rating": 2.5, "coordinates": {"latitude": 52.28797, "longitude": -113.85053}, "transactions": [], "price": "$$", "location": {"address1": "6620 Orr Drive", "address2": "", "address3": "", "city": "Red Deer", "zip_code": "T4P 3V8", "country": "CA", "state": "AB", "display_address": ["6620 Orr Drive", "Red Deer, AB T4P 3V8", "Canada"]}, "phone": "+14033413561", "display_phone": "+1 403-341-3561", "distance": 3041.175709320662}, {"id": "NPmlp62k7WZR1-RlZvuwjQ", "alias": "mcdonalds-red-deer-4", "name": "McDonald's", "image_url": "", "is_closed": false, "url": "https://www.yelp.com/biz/mcdonalds-red-deer-4?adjust_creative=BagZJOrnqKddLICuqFQeXw&utm_campaign=yelp_api_v3&utm_medium=api_v3_business_search&utm_source=BagZJOrnqKddLICuqFQeXw", "review_count": 4, "categories": [{"alias": "hotdogs", "title": "Fast Food"}, {"alias": "burgers", "title": "Burgers"}, {"alias": "coffee", "title": "Coffee & Tea"}], "rating": 2.5, "coordinates": {"latitude": 52.24315, "longitude": -113.8148}, "transactions": [], "price": "$", "location": {"address1": "2502 50th Ave.", "address2": "", "address3": "", "city": "Red Deer", "zip_code": "T4R 1M3", "country": "CA", "state": "AB", "display_address": ["2502 50th Ave.", "Red Deer, AB T4R 1M3", "Canada"]}, "phone": "+14033471700", "display_phone": "+1 403-347-1700", "distance": 4006.55905840479}, {"id": "iFLP2-db5XZGnJIT-8ijvw", "alias": "mcdonalds-red-deer-5", "name": "McDonald's", "image_url": "https://s3-media2.fl.yelpcdn.com/bphoto/sbh5QatkYBTcE9PKL1NOEw/o.jpg", "is_closed": false, "url": "https://www.yelp.com/biz/mcdonalds-red-deer-5?adjust_creative=BagZJOrnqKddLICuqFQeXw&utm_campaign=yelp_api_v3&utm_medium=api_v3_business_search&utm_source=BagZJOrnqKddLICuqFQeXw", "review_count": 5, "categories": [{"alias": "hotdogs", "title": "Fast Food"}, {"alias": "burgers", "title": "Burgers"}, {"alias": "coffee", "title": "Coffee & Tea"}], "rating": 2.0, "coordinates": {"latitude": 52.2380669582199, "longitude": -113.768336240365}, "transactions": [], "location": {"address1": "3020 22nd Street", "address2": "Unit 800", "address3": "", "city": "Red Deer", "zip_code": "T4R 3J5", "country": "CA", "state": "AB", "display_address": ["3020 22nd Street", "Unit 800", "Red Deer, AB T4R 3J5", "Canada"]}, "phone": "+14033417819", "display_phone": "+1 403-341-7819", "distance": 5308.702086424249}, {"id": "FmBD79F6zX-CjwBoicmiUg", "alias": "mcdonalds-red-deer-6", "name": "McDonald's", "image_url": "", "is_closed": false, "url": "https://www.yelp.com/biz/mcdonalds-red-deer-6?adjust_creative=BagZJOrnqKddLICuqFQeXw&utm_campaign=yelp_api_v3&utm_medium=api_v3_business_search&utm_source=BagZJOrnqKddLICuqFQeXw", "review_count": 2, "categories": [{"alias": "hotdogs", "title": "Fast Food"}, {"alias": "burgers", "title": "Burgers"}, {"alias": "coffee", "title": "Coffee & Tea"}], "rating": 3.0, "coordinates": {"latitude": 52.2676953023726, "longitude": -113.818003105612}, "transactions": [], "location": {"address1": "4840 52nd Avenue", "address2": "", "address3": "", "city": "Red Deer", "zip_code": "T4N 6Y8", "country": "CA", "state": "AB", "display_address": ["4840 52nd Avenue", "Red Deer, AB T4N 6Y8", "Canada"]}, "phone": "+14033477171", "display_phone": "+1 403-347-7171", "distance": 1396.262684721242}, {"id": "Y85b2a0FDJv1NTMhSqh1pg", "alias": "tim-hortons-red-deer", "name": "Tim Hortons", "image_url": "", "is_closed": false, "url": "https://www.yelp.com/biz/tim-hortons-red-deer?adjust_creative=BagZJOrnqKddLICuqFQeXw&utm_campaign=yelp_api_v3&utm_medium=api_v3_business_search&utm_source=BagZJOrnqKddLICuqFQeXw", "review_count": 3, "categories": [{"alias": "coffee", "title": "Coffee & Tea"}], "rating": 1.0, "coordinates": {"latitude": 52.2386426770686, "longitude": -113.814939318311}, "transactions": [], "price": "$", "location": {"address1": "5111 22 Street", "address2": "", "address3": "", "city": "Red Deer", "zip_code": "T4R 2K1", "country": "CA", "state": "AB", "display_address": ["5111 22 Street", "Red Deer, AB T4R 2K1", "Canada"]}, "phone": "+14033401420", "display_phone": "+1 403-340-1420", "distance": 4496.442020839624}, {"id": "NGUaq6V3lNDNcXYcue92Zw", "alias": "mcdonalds-red-deer-10", "name": "McDonald's", "image_url": "https://s3-media1.fl.yelpcdn.com/bphoto/MrFYhnA6_vfrHmqzLQgy4g/o.jpg", "is_closed": false, "url": "https://www.yelp.com/biz/mcdonalds-red-deer-10?adjust_creative=BagZJOrnqKddLICuqFQeXw&utm_campaign=yelp_api_v3&utm_medium=api_v3_business_search&utm_source=BagZJOrnqKddLICuqFQeXw", "review_count": 3, "categories": [{"alias": "hotdogs", "title": "Fast Food"}, {"alias": "burgers", "title": "Burgers"}, {"alias": "coffee", "title": "Coffee & Tea"}], "rating": 1.0, "coordinates": {"latitude": 52.28968, "longitude": -113.84754}, "transactions": [], "location": {"address1": "6702 Golden W Avenue", "address2": "Suite 300", "address3": null, "city": "Red Deer", "zip_code": "T4P 1A8", "country": "CA", "state": "AB", "display_address": ["6702 Golden W Avenue", "Suite 300", "Red Deer, AB T4P 1A8", "Canada"]}, "phone": "+14033470320", "display_phone": "+1 403-347-0320", "distance": 2927.4757437037842}], "total": 14, "region": {"center": {"longitude": -113.80874633789062, "latitude": 52.27890213032644}}}